City,Lat,Lng,Max temp,Humidity,Cloudiness,Wind Speed,Country,Date
Oistins,13.0667,-59.5333,77.09,83,40,13.8,BB,1643697694
Cape Town,-33.9258,18.4232,76.1,69,0,1.99,ZA,1643697546
Sampit,-2.5333,112.95,94.08,42,71,3.38,ID,1643697695
Barrow,71.2906,-156.7887,-12.98,77,100,5.75,US,1643697695
Creel,27.75,-107.6333,33.01,64,44,2.59,MX,1643697696
Cedar City,37.6775,-113.0619,32.4,50,0,0.0,US,1643697696
Tacoronte,28.4769,-16.4102,60.98,49,100,10.0,ES,1643697488
Bundaberg,-24.85,152.35,88.09,71,50,5.99,AU,1643697697
Beringovskiy,63.05,179.3167,8.53,94,100,10.8,RU,1643697698
Gīdolē,5.65,37.3667,69.8,29,48,2.01,ET,1643697699
Sijunjung,-0.6876,100.9537,85.35,70,96,3.67,ID,1643697699
Saint-Louis,16.3333,-15.0,76.64,15,100,9.6,SN,1643697700
Arraial do Cabo,-22.9661,-42.0278,76.19,91,100,4.43,BR,1643697701
Langsa,4.4683,97.9683,89.74,52,23,7.76,ID,1643697702
Saskylakh,71.9167,114.0833,-26.72,100,93,1.81,RU,1643697702
Baykit,61.67,96.37,6.57,94,90,1.79,RU,1643697703
Hithadhoo,-0.6,73.0833,82.8,71,0,10.33,MV,1643697704
Inuvik,68.3499,-133.7218,-6.59,80,100,3.44,CA,1643697705
Taltal,-25.4,-70.4833,63.63,84,75,2.13,CL,1643697706
Provideniya,64.3833,-173.3,4.33,72,97,21.41,RU,1643697706
Vardø,70.3705,31.1107,19.15,84,81,8.5,NO,1643697707
Stephenville,32.2207,-98.2023,54.91,90,100,5.75,US,1643697707
Vitim,59.4511,112.5578,4.19,87,100,5.77,RU,1643697708
Omaruru,-21.4333,15.9333,67.35,62,73,5.03,NA,1643697708
Cockburn Town,21.4612,-71.1419,75.04,71,7,16.33,TC,1643697709
Omboué,-1.5746,9.2618,79.77,81,71,0.11,GA,1643697710
Gornozavodsk,58.3758,58.3211,19.26,94,100,4.81,RU,1643697710
Rikitea,-23.1203,-134.9692,78.17,66,59,8.72,PF,1643697711
Dikson,73.5069,80.5464,2.3,90,100,20.29,RU,1643697711
Ribeira Grande,38.5167,-28.7,59.47,78,43,17.56,PT,1643697712
Kysyl-Syr,63.8986,122.7617,-21.3,97,75,5.44,RU,1643697712
Saint Paul Harbor,57.79,-152.4072,35.11,87,100,14.97,US,1643697713
Ushuaia,-54.8,-68.3,40.66,87,100,27.63,AR,1643697713
Concarneau,47.875,-3.9225,48.99,89,6,13.76,FR,1643697714
Albany,42.6001,-73.9662,11.62,76,9,1.34,US,1643697715
Punta Arenas,-53.15,-70.9167,44.71,76,40,34.52,CL,1643697716
Imphal,24.8167,93.95,67.39,32,4,9.93,IN,1643697608
Bethel,41.3712,-73.414,20.48,71,0,0.0,US,1643697717
Hilo,19.7297,-155.09,69.8,85,0,3.44,US,1643697718
Asău,46.4333,26.4,32.76,78,98,2.8,RO,1643697718
Sept-Îles,50.2001,-66.3821,-1.68,50,0,6.91,CA,1643697719
Anloga,5.7947,0.8973,68.22,73,100,2.37,GH,1643697720
Marathon,44.9,-89.7668,27.93,75,0,1.99,US,1643697721
Don Luan,11.5333,106.9167,96.13,35,78,1.36,VN,1643697462
Bredasdorp,-34.5322,20.0403,69.12,88,0,6.91,ZA,1643697722
Faya,18.3851,42.4509,59.11,45,2,6.15,SA,1643697722
Mount Isa,-20.7333,139.5,94.77,38,40,14.97,AU,1643697723
La Plata,-34.9215,-57.9545,68.99,60,4,10.11,AR,1643697724
Atuona,-9.8,-139.0333,79.02,73,10,21.94,PF,1643697724
Torbay,47.6666,-52.7314,30.38,70,75,19.57,CA,1643697725
Mubi,10.2676,13.2644,62.98,22,4,1.14,NG,1643697725
Cabo San Lucas,22.8909,-109.9124,68.5,65,0,8.05,MX,1643697726
Makakilo City,21.3469,-158.0858,71.92,74,0,0.0,US,1643697726
Esperance,-33.8667,121.9,71.44,52,13,19.15,AU,1643697727
Avarua,-21.2078,-159.775,78.85,83,100,9.22,CK,1643697727
Talnakh,69.4865,88.3972,2.21,95,100,9.31,RU,1643697728
Khāsh,28.2211,61.2158,61.99,26,0,7.38,IR,1643697728
Klaksvík,62.2266,-6.589,41.92,81,27,41.05,FO,1643697729
Gisborne,-38.6533,178.0042,68.85,79,98,8.57,NZ,1643697516
Kapaa,22.0752,-159.319,73.38,70,0,4.61,US,1643697730
Elizabeth City,36.2946,-76.2511,39.99,90,0,5.75,US,1643697730
Pandamatenga,-18.5278,25.627,69.96,85,54,10.54,BW,1643697731
Severo-Kuril'sk,50.6789,156.125,26.98,77,90,9.26,RU,1643697731
Iqaluit,63.7506,-68.5145,-29.31,73,20,2.3,CA,1643697608
Mataura,-46.1927,168.8643,60.48,80,100,1.19,NZ,1643697732
Brae,60.3964,-1.353,48.11,79,99,36.84,GB,1643697631
Anadyr,64.75,177.4833,18.1,67,100,31.0,RU,1643697734
Tiksi,71.6872,128.8694,-10.08,100,100,3.83,RU,1643697734
Buin,-33.7333,-70.75,71.87,56,100,0.92,CL,1643697735
Yellowknife,62.456,-114.3525,-14.71,83,20,6.91,CA,1643697736
Port Alfred,-33.5906,26.891,80.62,74,94,1.39,ZA,1643697736
Linkuva,56.0856,23.9725,27.27,95,42,8.7,LT,1643697736
Inhambane,-23.865,35.3833,84.18,70,40,0.0,MZ,1643697737
Ocampo,21.65,-101.5,47.39,37,0,8.81,MX,1643697739
Sitka,57.0531,-135.33,33.69,86,100,3.44,US,1643697739
Carnarvon,-24.8667,113.6333,89.67,55,73,20.71,AU,1643697717
São Filipe,14.8961,-24.4956,74.98,70,100,11.03,CV,1643697741
Basoko,1.2391,23.616,80.87,57,59,5.41,CD,1643697742
Bairiki Village,1.3292,172.9752,82.4,83,20,10.36,KI,1643697742
Qaanaaq,77.484,-69.3632,-19.68,64,71,9.84,GL,1643697743
New Norfolk,-42.7826,147.0587,71.1,40,37,4.0,AU,1643697743
Tuktoyaktuk,69.4541,-133.0374,-23.8,76,0,2.3,CA,1643697744
Chui,-33.6971,-53.4616,57.87,70,0,4.43,UY,1643697745
East London,-33.0153,27.9116,77.94,78,0,4.61,ZA,1643697746
Lagoa,39.05,-27.9833,58.57,79,100,21.88,PT,1643697746
Coahuayana Viejo,18.7333,-103.6833,67.51,86,4,4.07,MX,1643697747
Eenhana,-17.4667,16.3333,67.8,50,100,6.82,NA,1643697747
Tuatapere,-46.1333,167.6833,60.82,95,100,2.53,NZ,1643697748
Hermanus,-34.4187,19.2345,78.24,66,2,4.03,ZA,1643697748
Kiryat Gat,31.61,34.7642,54.91,100,56,9.57,IL,1643697618
Busselton,-33.65,115.3333,82.04,28,0,6.2,AU,1643697749
Lensk,60.7253,114.9278,1.29,92,100,6.67,RU,1643697750
Kismayo,-0.3582,42.5454,82.96,64,76,14.29,SO,1643697750
Summerside,46.3959,-63.7876,7.23,72,11,5.75,CA,1643697751
Tessalit,20.1986,1.0114,59.5,11,0,7.96,ML,1643697751
Nome,64.5011,-165.4064,17.67,49,0,16.11,US,1643697752
Bereda,43.2686,-7.5406,42.58,100,97,6.44,ES,1643697752
Puerto Ayora,-0.7393,-90.3518,71.55,94,76,1.99,EC,1643697753
Butaritari,3.0707,172.7902,82.33,76,98,13.78,KI,1643697753
Mount Gambier,-37.8333,140.7667,64.31,48,100,24.16,AU,1643697754
Collie,-33.3667,116.15,78.98,19,0,12.15,AU,1643697754
Chongwe,-15.3292,28.682,71.29,80,34,6.6,ZM,1643697755
Vaini,-21.2,-175.2,82.56,78,40,6.91,TO,1643697756
Pacific Grove,36.6177,-121.9166,51.28,88,0,1.01,US,1643697756
Mvuma,-19.2792,30.5283,71.87,67,1,3.94,ZW,1643697757
Linhares,-19.3911,-40.0722,73.04,95,100,4.27,BR,1643697757
Hobart,-42.8794,147.3294,71.46,43,0,24.16,AU,1643697756
Mar del Plata,-38.0023,-57.5575,57.09,75,0,1.99,AR,1643697759
Liverpool,53.4106,-2.9779,50.76,94,100,15.99,GB,1643697759
Meulaboh,4.1363,96.1285,84.02,69,69,6.55,ID,1643697760
Aleksandrov Gay,50.147,48.5704,32.04,92,100,11.7,RU,1643697760
Korla,41.7597,86.1469,31.3,34,13,5.1,CN,1643697761
Jamestown,42.097,-79.2353,24.71,76,0,1.01,US,1643697761
Upernavik,72.7868,-56.1549,-22.74,99,99,4.74,GL,1643697762
Hov,60.6987,10.3519,13.68,95,100,1.5,NO,1643697762
Saquarema,-22.92,-42.5103,74.98,92,100,6.31,BR,1643697763
Airai,-8.9266,125.4092,69.75,71,67,6.04,TL,1643697763
Prudy,57.5738,46.2718,30.9,97,100,13.02,RU,1643697764
Maïné Soroa,13.2114,12.0241,57.54,27,0,11.07,NE,1643697764
Nikolskoye,59.7035,30.7861,24.69,96,100,4.14,RU,1643697764
Dharān,26.8125,87.2835,66.24,44,48,5.1,NP,1643697765
Geraldton,-28.7667,114.6,91.81,33,0,24.16,AU,1643697765
Toledo,39.8333,-4.0,40.32,75,0,8.28,ES,1643697766
Biltine,14.5333,20.9167,59.79,20,0,12.21,TD,1643697766
Kaitangata,-46.2817,169.8464,63.07,87,100,5.48,NZ,1643697767
Werda,-25.2667,23.2833,77.94,49,100,17.54,BW,1643697768
Ancud,-41.8697,-73.8203,58.23,95,100,5.7,CL,1643697769
Borogontsy,62.6683,131.1683,-23.53,98,100,3.44,RU,1643697769
Guerrero Negro,27.9769,-114.0611,59.22,78,30,11.68,MX,1643697770
Praia,14.9215,-23.5087,70.34,83,0,3.44,CV,1643697771
Pisco,-13.7,-76.2167,69.85,78,75,6.91,PE,1643697771
Mnogovershinnyy,53.9353,139.9242,-1.21,91,100,6.2,RU,1643697772
Clyde River,70.4692,-68.5914,-16.37,58,20,2.3,CA,1643697772
Hondomachi-hondo,32.45,130.2,48.15,64,100,21.0,JP,1643697774
Castro,-24.7911,-50.0119,60.1,91,7,1.1,BR,1643697775
Lebedinyy,58.5167,125.5167,-8.21,98,100,3.94,RU,1643697775
Saint George,37.1041,-113.5841,45.19,35,0,3.0,US,1643697775
Te Anau,-45.4167,167.7167,61.07,94,100,1.54,NZ,1643697776
Harper,4.375,-7.7169,76.42,88,89,5.48,LR,1643697776
Codrington,-38.2667,141.9667,61.03,65,100,19.24,AU,1643697777
Pundaguitan,6.3711,126.1689,81.55,74,100,15.03,PH,1643697777
Bluff,-46.6,168.3333,60.8,90,100,9.15,NZ,1643697778
Krasnosel'kup,65.7,82.4667,8.35,95,100,8.34,RU,1643697780
Minsk,53.9,27.5667,22.75,93,84,10.6,BY,1643697601
Elk Plain,47.0532,-122.3976,41.25,88,100,1.01,US,1643697781
Nouadhibou,20.931,-17.0347,66.18,82,100,5.75,MR,1643697783
Villaviciosa,43.4813,-5.4357,51.39,98,97,2.68,ES,1643697783
Ust'-Ilimsk,58.0006,102.6619,6.28,88,100,1.72,RU,1643697784
‘Āhuimanu,21.4447,-157.8378,73.11,81,100,1.99,US,1643697784
Khatanga,71.9667,102.5,-31.99,100,21,3.56,RU,1643697785
Beloha,-25.1667,45.05,88.05,36,51,10.42,MG,1643697785
Popondetta,-8.7537,148.2534,82.06,78,100,3.15,PG,1643697786
Portland,45.5234,-122.6762,41.2,92,75,1.01,US,1643697618
Haines Junction,60.7522,-137.5108,-32.85,68,92,2.3,CA,1643697788
Matagami,49.7502,-77.6328,-0.29,71,100,11.5,CA,1643697788
Florida,28.7505,-82.5001,48.74,80,15,6.89,US,1643697788
Rawson,-43.3002,-65.1023,68.72,39,1,24.0,AR,1643697789
Nishihara,26.1842,127.7558,67.68,56,75,12.66,JP,1643697536
Duki,30.1541,68.5728,58.24,23,0,2.13,PK,1643697790
Mitú,1.1983,-70.1733,68.22,77,99,0.25,CO,1643697791
Fairbanks,64.8378,-147.7164,-14.4,69,0,4.61,US,1643697791
Tsivil'sk,55.8611,47.4664,33.01,97,100,16.75,RU,1643697792
Tura,25.5198,90.2201,69.76,40,16,6.44,IN,1643697793
Belaya Gora,68.5333,146.4167,-12.28,97,100,1.7,RU,1643697794
Palmer,42.1584,-72.3287,12.69,80,0,0.0,US,1643697794
Hilton Head,32.2163,-80.7526,42.98,100,0,0.0,US,1643697795
Terney,45.0503,136.6092,19.51,61,14,9.93,RU,1643697795
Pevek,69.7008,170.3133,-16.26,97,100,1.01,RU,1643697796
Mirny,62.5353,113.9611,-17.77,75,86,4.0,RU,1643697696
Vao,-22.6667,167.4833,75.22,85,100,15.01,NC,1643697797
Port Blair,11.6667,92.75,82.44,61,40,9.22,IN,1643697798
Chokurdakh,70.6333,147.9167,-17.54,97,100,2.01,RU,1643697799
Aromashevo,56.8602,68.6375,13.39,95,97,5.19,RU,1643697799
Avera,33.194,-82.5271,42.67,58,0,5.01,US,1643697801
San Quintín,30.4833,-115.95,55.83,82,36,7.92,MX,1643697801
Mokhsogollokh,61.4681,128.9203,-9.38,92,100,7.25,RU,1643697802
Soyo,-6.1349,12.3689,77.05,84,72,5.77,AO,1643697803
Hong Kong,22.2855,114.1577,57.33,86,100,5.01,HK,1643697764
Pacifica,37.6138,-122.4869,52.65,85,40,3.0,US,1643697805
Mehamn,71.0357,27.8492,21.38,84,74,11.05,NO,1643697806
Biak,-0.9131,122.8766,85.71,57,100,4.38,ID,1643697806
Djambala,-2.5447,14.7533,74.25,71,88,3.8,CG,1643697806
Lata,40.1629,-8.3327,50.05,66,0,6.64,PT,1643697807
Los Llanos de Aridane,28.6585,-17.9182,58.75,42,0,5.01,ES,1643697807
Hualmay,-11.0964,-77.6139,69.51,86,100,6.06,PE,1643697808
Whitianga,-36.8333,175.7,68.56,84,81,11.99,NZ,1643697808
Ola,59.5833,151.2833,1.09,80,41,11.32,RU,1643697810
Buckingham,51.9997,-0.9878,48.4,86,100,1.99,GB,1643697631
Río Gallegos,-51.6226,-69.2181,46.45,71,0,23.02,AR,1643697811
Gejiu,23.306,103.1635,44.47,83,79,7.83,CN,1643697811
Moose Factory,51.2585,-80.6094,10.4,72,100,8.05,CA,1643697812
Rocha,-34.4833,-54.3333,53.62,75,0,2.71,UY,1643697812
Mehndāwal,26.9753,83.1117,68.83,45,0,8.84,IN,1643697813
Faanui,-16.4833,-151.75,81.3,75,6,20.78,PF,1643697814
Jinchang,38.4953,102.1739,25.32,24,13,5.08,CN,1643697814
Ballangen,68.3428,16.8315,21.42,49,0,5.75,NO,1643697815
Puerto del Rosario,28.5004,-13.8627,65.88,55,0,8.05,ES,1643697815
Hastings,50.8552,0.5729,48.52,89,100,19.98,GB,1643697608
Lebu,-37.6167,-73.65,54.82,86,1,14.38,CL,1643697816
Tasiilaq,65.6145,-37.6368,5.16,74,100,7.43,GL,1643697817
Kruisfontein,-34.0033,24.7314,75.88,54,100,5.08,ZA,1643697818
Muğla Province,37.2303,28.3557,32.67,72,99,7.81,TR,1643697819
Ilulissat,69.2167,-51.1,6.82,72,100,4.61,GL,1643697819
Hirara,24.8,125.2833,70.07,60,75,12.66,JP,1643697820
Orlik,52.5178,99.825,1.58,83,25,0.34,RU,1643697820
Bilibino,68.0546,166.4372,5.65,68,100,6.31,RU,1643697821
Quryq,43.2,51.65,45.73,71,23,8.03,KZ,1643697822
Cap Malheureux,-19.9842,57.6142,86.47,64,99,17.0,MU,1643697822
Saint Anthony,45.0205,-93.218,37.15,78,0,5.01,US,1643697823
Tosya,41.0155,34.0401,22.01,88,83,4.25,TR,1643697823
Vallenar,-28.5708,-70.7581,63.54,73,98,3.76,CL,1643697824
Ambilobe,-13.2,49.05,82.56,78,100,3.65,MG,1643697825
Nantucket,41.2835,-70.0995,31.14,69,0,12.66,US,1643697825
Cidreira,-30.1811,-50.2056,71.58,87,6,9.4,BR,1643697826
Constitución,-35.3333,-72.4167,56.95,68,0,3.74,CL,1643697828
Edd,13.9297,41.6925,81.82,52,26,5.19,ER,1643697828
Lüderitz,-26.6481,15.1594,65.66,90,100,7.83,NA,1643697829
Isangel,-19.55,169.2667,78.91,89,100,8.05,VU,1643697830
Mocuba,-16.8392,36.9856,81.5,71,5,1.3,MZ,1643697830
Nanortalik,60.1432,-45.2371,19.6,77,100,7.16,GL,1643697831
Sungai Raya,0.7,108.9,81.57,78,100,7.56,ID,1643697831
Wad Medani,14.4012,33.5199,67.44,18,12,16.44,SD,1643697832
Bambous Virieux,-20.3428,57.7575,86.22,74,75,18.41,MU,1643697833
Imbituba,-28.24,-48.6703,71.49,92,6,5.3,BR,1643697834
Kavieng,-2.5744,150.7967,77.45,91,100,10.25,PG,1643697835
Ankazobe,-18.3167,47.1167,72.01,64,76,13.15,MG,1643697835
Mathathane,-22.2687,28.7495,76.37,56,0,16.46,BW,1643697836
Zinder,13.8072,8.9881,57.16,23,0,9.22,NE,1643697836
Naze,28.3667,129.4833,59.92,60,99,10.98,JP,1643697564
Melilla,35.2937,-2.9383,64.78,32,0,9.22,ES,1643697837
Keti Bandar,24.1447,67.4497,78.8,46,0,2.17,PK,1643697838
Pochutla,15.7432,-96.4661,76.82,85,0,5.21,MX,1643697838
Kalabo,-14.97,22.6814,67.1,91,100,9.82,ZM,1643697839
Quang Ngai,15.1167,108.8,76.98,79,64,7.92,VN,1643697669
Saldanha,-33.0117,17.9442,62.65,71,0,13.65,ZA,1643697840
Warmbad,-28.45,18.7333,78.69,65,100,8.25,NA,1643697606
Bizhbulyak,53.6967,54.2642,23.7,95,100,16.22,RU,1643697841
Zhigansk,66.7697,123.3711,-28.16,98,99,6.55,RU,1643697841
Lubbock,33.6001,-101.8338,50.14,43,40,5.99,US,1643697842
Manta,-0.95,-80.7333,73.18,88,75,0.0,EC,1643697842
Moranbah,-22.0016,148.0466,95.09,33,100,6.85,AU,1643697843
Laas,46.6166,10.7002,35.62,94,100,7.72,IT,1643697843
Saint-Philippe,-21.3585,55.7679,85.59,70,54,13.98,RE,1643697844
Aljezur,37.3191,-8.8033,49.82,50,0,5.48,PT,1643697845
Kavaratti,10.5669,72.642,80.87,67,3,4.83,IN,1643697845
Gamboma,-1.8764,15.8644,81.91,56,12,1.61,CG,1643697846
Baruun-Urt,46.6806,113.2792,4.37,76,6,9.19,MN,1643697847
Saint-Augustin,51.226,-58.6502,-5.31,89,11,8.46,CA,1643697848
Oulu,65.0124,25.4682,10.51,92,100,3.0,FI,1643697849
Alice Springs,-23.7,133.8833,80.15,89,100,9.22,AU,1643697850
Hede,33.7681,120.2517,39.81,41,0,11.65,CN,1643697850
Dabou,5.3256,-4.3769,76.8,90,100,3.24,CI,1643697851
Aranyosapáti,48.206,22.2592,30.94,93,96,5.53,HU,1643697851
Mayo,38.8876,-76.5119,28.94,77,0,7.0,US,1643697852
Panjāb,34.388,67.0233,18.32,51,3,1.86,AF,1643697852
Ostrovnoy,68.0531,39.5131,14.58,96,100,3.4,RU,1643697853
Tirano,46.2154,10.1679,39.31,72,86,6.82,IT,1643697853
Willmar,45.1219,-95.0433,35.19,86,40,11.5,US,1643697825
Vila Velha,-20.3297,-40.2925,73.35,96,75,5.01,BR,1643697854
Zdvinsk,54.7021,78.661,21.25,89,100,12.73,RU,1643697855
Turaif,31.6725,38.6637,39.45,93,0,4.61,SA,1643697855
Hasaki,35.7333,140.8333,48.6,43,100,6.55,JP,1643697646
Santa Cruz do Rio Pardo,-22.8989,-49.6325,66.83,99,100,2.89,BR,1643697856
High Level,58.5169,-117.136,-21.89,76,0,2.3,CA,1643697857
Juba,4.8517,31.5825,86.68,16,11,5.26,SS,1643697857
Hokitika,-42.7167,170.9667,66.38,78,100,4.23,NZ,1643697858
Kilindoni,-7.9139,39.6668,81.01,76,100,6.55,TZ,1643697858
Juneau,58.3019,-134.4197,23.22,93,18,6.55,US,1643697859
Jizan,17.3333,42.6667,76.14,60,76,2.55,SA,1643697859
St. George's,12.0564,-61.7485,76.68,88,20,11.5,GD,1643697860
Mahébourg,-20.4081,57.7,86.25,74,75,18.41,MU,1643697861
Ko Samui,9.5357,99.9357,87.71,66,20,11.5,TH,1643697579
San Cristobal,7.7669,-72.225,64.44,87,100,2.73,VE,1643697861
Spornoye,50.8448,37.2913,30.22,87,100,17.63,RU,1643697862
San Ramon,37.7799,-121.978,51.58,89,0,1.99,US,1643697863
George Town,5.4112,100.3354,94.93,67,20,5.01,MY,1643697566
Olafsvik,64.8945,-23.7142,23.02,75,69,7.58,IS,1643697864
Touros,-5.1989,-35.4608,74.3,75,100,8.66,BR,1643697866
Muş Province,39.0,41.75,14.04,94,100,2.68,TR,1643697866
South Sioux City,42.4739,-96.4136,43.2,58,0,5.99,US,1643697867
Abhā,18.2164,42.5053,58.82,63,0,11.5,SA,1643697867
Richards Bay,-28.783,32.0377,82.67,61,100,10.92,ZA,1643697868
Itarema,-2.9248,-39.9167,75.45,85,94,8.46,BR,1643697868
Nikolo-Pavlovskoye,57.7831,60.0578,24.03,90,100,6.85,RU,1643697869
Garoowe,8.4054,48.4845,76.91,56,96,11.83,SO,1643697869
Mackay,-21.15,149.2,87.78,58,30,13.8,AU,1643697870
Ponta do Sol,32.6667,-17.1,65.03,79,16,13.71,PT,1643697870
Norsup,-16.0667,167.3833,79.68,82,98,1.36,VU,1643697871
Ca Mau,9.1769,105.15,87.48,55,80,14.32,VN,1643697872
Pastavy,55.1168,26.8326,21.04,92,97,11.14,BY,1643697872
Balkhash,46.844,74.9804,18.21,79,40,11.18,KZ,1643697873
Okha,53.5739,142.9478,5.0,92,100,22.26,RU,1643697873
Valparaíso,-33.0393,-71.6273,65.48,73,75,2.3,CL,1643697874
Hamilton,39.1834,-84.5333,34.93,78,75,1.01,US,1643697876
Camaná,-16.6228,-72.7111,69.96,85,44,6.33,PE,1643697876
Griffith,41.5284,-87.4237,34.39,72,0,3.0,US,1643697877
Port Elizabeth,-33.918,25.5701,78.1,88,0,0.0,ZA,1643697877
Pierre,44.3683,-100.351,31.86,57,75,4.0,US,1643697878
La Macarena,2.1837,-73.7849,73.76,53,100,2.89,CO,1643697878
Changping,40.2186,116.2197,34.65,16,0,4.88,CN,1643697820
Kokopo,-4.352,152.2633,80.87,80,100,10.13,PG,1643697880
Kirksville,40.1948,-92.5833,44.78,59,0,5.01,US,1643697880
Kiama,-34.6833,150.8667,90.0,70,100,3.0,AU,1643697763
Vila do Maio,15.1333,-23.2167,70.59,84,100,15.37,CV,1643697881
Karachev,53.1229,34.9852,24.69,94,100,11.07,RU,1643697881
Ibrā’,22.6906,58.5334,79.65,22,0,4.09,OM,1643697882
Bengkulu,-3.8004,102.2655,85.06,68,96,9.8,ID,1643697882
Rudnyy,52.9594,63.1206,17.83,95,65,5.75,KZ,1643697883
Ziro,27.6333,93.8333,34.54,93,100,2.66,IN,1643697884
Bay Roberts,47.5999,-53.2648,31.14,66,84,7.0,CA,1643697884
Tabou,4.423,-7.3528,75.54,90,14,4.85,CI,1643697885
Whitehorse,60.7161,-135.0538,-17.63,69,0,2.3,CA,1643697885
Atherton,53.5237,-2.4935,50.36,94,100,11.99,GB,1643697886
Santa Cruz de la Sierra,-17.8,-63.1667,69.26,100,100,6.91,BO,1643697887
Narsaq,60.9167,-46.05,23.22,98,63,3.33,GL,1643697887
Oga,46.4631,10.347,28.24,93,100,5.59,IT,1643697887
Puerto Escondido,15.85,-97.0667,74.64,81,0,7.16,MX,1643697889
Half Moon Bay,37.4636,-122.4286,52.83,87,0,3.44,US,1643697889
Boysun,38.2061,67.1986,42.55,56,7,8.99,UZ,1643697890
Necochea,-38.5473,-58.7368,59.04,53,0,19.62,AR,1643697890
Marawi,7.9986,124.2928,75.65,76,100,7.74,PH,1643697891
Rieti,42.4072,12.8592,43.54,73,2,18.41,IT,1643697892
Warrnambool,-38.3833,142.4833,61.05,68,100,21.27,AU,1643697774
Hofn,64.2539,-15.2082,24.01,65,94,27.27,IS,1643697893
Lompoc,34.6391,-120.4579,61.11,87,0,0.0,US,1643697893
Goroka,-6.0834,145.3873,66.76,89,100,3.38,PG,1643697893
Honningsvåg,70.9821,25.9704,20.95,79,0,13.8,NO,1643697894
Sidi Ali,36.0998,0.4206,46.99,83,0,8.61,DZ,1643697894
Auki,-8.7676,160.7034,80.89,81,98,6.24,SB,1643697895
Thompson,55.7435,-97.8558,-0.24,78,100,12.66,CA,1643697896
Aklavik,68.2191,-135.0107,-6.77,98,100,4.03,CA,1643697896
Petropavlovsk-Kamchatskiy,53.0452,158.6483,27.19,69,0,15.66,RU,1643697765
Barra Patuca,15.8,-84.2833,71.87,80,85,2.91,HN,1643697897
Vostok,46.4856,135.8833,6.22,92,100,6.06,RU,1643697898
Ürümqi,43.801,87.6005,2.35,85,75,2.24,CN,1643697899
Calvinia,-31.4707,19.776,75.06,65,76,7.14,ZA,1643697900
Pirojpur,22.5667,89.9833,81.81,32,5,7.54,BD,1643697900
Ust'-Koksa,50.2696,85.6108,20.48,90,99,1.14,RU,1643697901
Tezu,27.9167,96.1667,65.26,56,100,2.71,IN,1643697901
Mezen',65.8522,44.24,-0.44,98,100,4.81,RU,1643697902
Bucerías,20.75,-105.3333,67.98,91,0,4.29,MX,1643697903
Dunedin,-45.8742,170.5036,64.8,92,100,4.0,NZ,1643697904
Lātehār,23.75,84.5,76.41,24,0,10.89,IN,1643697904
College,64.8569,-147.8028,-14.42,73,0,4.61,US,1643697905
Coyhaique,-45.5752,-72.0662,57.81,76,40,5.75,CL,1643697905
Gizo Government Station,-8.103,156.8419,83.01,74,76,5.03,SB,1643697906
Karratha,-20.7377,116.8463,92.07,55,100,11.74,AU,1643697906
Canalete,8.6761,-76.2042,72.09,87,23,2.24,CO,1643697907
Gachsaran,30.3586,50.7981,50.09,87,100,4.61,IR,1643697909
Askino,56.0901,56.5783,27.54,94,100,12.68,RU,1643697909
Keflavik,64.0049,-22.5624,32.43,64,75,20.71,IS,1643697910
Caconda,-13.7333,15.0667,63.86,61,84,2.71,AO,1643697910
Krasnogvardeyets,52.6804,52.3635,28.74,94,100,15.59,RU,1643697911
Laramie,41.3114,-105.5911,27.25,50,100,14.97,US,1643697911
Tegul'det,57.3064,88.1667,18.39,89,100,6.53,RU,1643697912
Adrar,20.5022,-10.0711,66.29,12,100,10.71,MR,1643697912
Mossamedes,-15.1961,12.1522,70.43,78,40,6.91,AO,1643697913
Labuhan,-6.8844,112.2051,84.74,72,39,9.78,ID,1643697913
Windsor,42.3001,-83.0165,23.02,89,0,5.75,CA,1643697914
Kloulklubed,7.0419,134.2556,82.9,76,100,15.05,PW,1643697914
Gardelegen,52.5252,11.3952,36.99,87,100,12.17,DE,1643697915
Lampazos de Naranjo,27.0167,-100.5167,60.49,59,0,4.94,MX,1643697915
Goderich,43.7501,-81.7165,23.2,63,100,11.5,CA,1643697916
Khasan,42.4308,130.6434,25.66,44,2,20.67,RU,1643697916
Mandurah,-32.55,115.7,86.25,33,0,9.71,AU,1643697917
Sistranda,63.7256,8.834,30.16,61,100,15.55,NO,1643697918
Murgab,37.4966,61.9714,44.47,53,0,11.5,TM,1643697918
Rājnagar,24.8833,79.9167,78.37,26,0,8.81,IN,1643697919
Saint-Pierre,-21.3393,55.4781,86.18,58,100,23.02,RE,1643697920
Jiaocheng,24.6774,116.1389,48.9,94,100,2.53,CN,1643697920
Avilés,43.5547,-5.9248,49.77,86,40,3.44,ES,1643697921
Gull Lake,50.1001,-108.4847,-3.64,95,100,19.64,CA,1643697921
Odda,60.0691,6.5457,33.01,95,100,6.22,NO,1643697922
Alofi,-19.0595,-169.9187,78.69,83,100,2.3,NU,1643697923
Presidencia Roque Sáenz Peña,-26.7852,-60.4388,70.74,32,16,3.67,AR,1643697923
Bonavista,48.6499,-53.1147,30.11,60,5,19.39,CA,1643697924
Lucapa,-8.4192,20.7447,70.18,88,95,3.87,AO,1643697924
The Valley,18.217,-63.0578,77.09,74,3,5.17,AI,1643697925
Urengoy,65.9667,78.3667,3.02,97,97,6.67,RU,1643697925
Kjøllefjord,70.9457,27.3465,21.25,86,73,9.93,NO,1643697926
Bandarbeyla,9.4942,50.8122,78.93,67,99,15.39,SO,1643697926
Norman Wells,65.282,-126.8329,1.44,71,75,11.5,CA,1643697927
Kurayoshi,35.4333,133.8167,42.71,74,99,18.3,JP,1643697658
Viedma,-40.8135,-62.9967,71.56,24,0,19.39,AR,1643697928
Bua Yai,15.5855,102.4259,90.86,75,82,4.68,TH,1643697681
Kralendijk,12.15,-68.2667,78.78,83,20,9.22,BQ,1643697929
Atar,20.5169,-13.0499,76.12,13,100,11.18,MR,1643697929
Bilma,18.6853,12.9164,53.38,23,0,5.84,NE,1643697929
Chilmāri,25.5559,89.6715,73.15,40,0,8.52,BD,1643697930
Westport,41.1415,-73.3579,22.8,70,0,4.0,US,1643697931
Bedelē,8.456,36.353,70.83,32,58,3.76,ET,1643697931
Safford,32.834,-109.7076,51.12,39,100,5.14,US,1643697932
Kahului,20.8947,-156.47,73.42,73,0,11.5,US,1643697933
Markova,48.6758,24.4138,29.79,86,91,3.09,UA,1643697934
Misratah,32.3754,15.0925,54.61,49,96,17.72,LY,1643697934
Wau,7.7029,27.9953,75.69,17,51,8.48,SS,1643697928
Pareora,-44.4871,171.2132,68.18,91,100,2.19,NZ,1643697935
Champerico,14.3,-91.9167,78.04,76,8,3.78,GT,1643697936
Chara,56.9064,118.2631,-12.78,99,35,1.1,RU,1643697936
Ayacucho,-13.1583,-74.2239,51.44,89,100,3.02,PE,1643697937
Turukhansk,65.8167,87.9833,12.07,94,100,10.85,RU,1643697938
Necoclí,8.4234,-76.786,73.54,90,6,4.63,CO,1643697938
Pont-à-Mousson,48.9079,6.0589,37.78,81,100,4.61,FR,1643697939
Guhāgar,17.4842,73.1929,88.21,28,0,7.18,IN,1643697939
Port Keats,-14.25,129.55,82.54,79,86,22.06,AU,1643697939
Guajará,-2.9667,-57.6667,72.01,98,38,1.7,BR,1643697940
Berlevåg,70.8578,29.0864,19.2,67,0,0.0,NO,1643697940
Parkes,-33.1333,148.1833,77.63,81,100,4.9,AU,1643697941
Cabo Rojo,18.0866,-67.1457,74.68,86,0,5.5,PR,1643697941
Ulladulla,-35.35,150.4667,88.7,53,100,9.13,AU,1643697750
Vredendal,-31.6683,18.5012,76.59,64,0,5.88,ZA,1643697945
Muzhi,65.3667,64.6667,-11.4,98,34,3.71,RU,1643697946
Havøysund,70.9963,24.6622,21.43,68,100,9.8,NO,1643697947
Lavrentiya,65.5833,-171.0,-2.38,79,14,12.88,RU,1643697947
Qasigiannguit,68.8193,-51.1922,7.05,94,100,5.39,GL,1643697948
Arlit,18.7369,7.3853,55.24,21,0,5.21,NE,1643697949
Tabuk,17.4189,121.4443,78.28,73,85,4.41,PH,1643697950
Port Hardy,50.6996,-127.4199,38.75,100,75,4.61,CA,1643697951
San Jose,37.3394,-121.895,52.97,83,40,4.61,US,1643697897
Salalah,17.0151,54.0924,77.09,50,0,2.3,OM,1643697953
Flinders,-34.5833,150.8552,89.8,69,100,5.68,AU,1643697953
Bereket,39.2446,55.5154,52.88,31,70,2.93,TM,1643697954
Sakaiminato,35.55,133.2333,42.78,52,75,29.93,JP,1643697808
Grand Forks,47.9417,-97.4337,28.78,86,100,28.77,US,1643697955
Yulara,-25.2406,130.9889,75.04,83,100,12.66,AU,1643697955
Saquena,-4.6667,-73.5167,71.04,81,91,2.06,PE,1643697956
Sørland,67.667,12.6934,32.07,49,100,16.08,NO,1643697956
Polovinnoye,54.7914,65.9864,16.88,94,20,7.99,RU,1643697957
Chino,34.0122,-117.6889,57.36,76,0,3.44,US,1643697956
Liberty,31.8335,-81.5004,46.98,82,0,3.0,US,1643697958
Port Lincoln,-34.7333,135.8667,64.96,57,1,24.96,AU,1643697959
Le Port,-20.9373,55.2919,86.5,67,32,2.77,RE,1643697959
Taoudenni,22.6783,-3.9836,62.8,9,8,11.21,ML,1643697960
Vanavara,60.34,102.2797,1.87,88,100,2.75,RU,1643697961
Palafrugell,41.9174,3.1631,49.46,19,0,26.04,ES,1643697961
Kenai,60.5544,-151.2583,10.09,83,0,5.75,US,1643697962
Molina,-35.1167,-71.2833,56.44,50,0,0.78,CL,1643697962
Paamiut,61.994,-49.6678,17.98,93,100,7.02,GL,1643697963
Hay River,60.8156,-115.7999,-4.02,71,75,11.5,CA,1643697963
Port-Gentil,-0.7193,8.7815,76.96,94,40,0.0,GA,1643697964
Morondava,-20.2833,44.2833,85.96,66,0,7.38,MG,1643697964
Røros,62.5747,11.3842,10.24,85,100,2.3,NO,1643697967
Chapais,49.7834,-74.8492,-20.42,97,56,5.7,CA,1643697968
Fort Nelson,58.8053,-122.7002,-18.81,83,0,0.0,CA,1643697968
Bocas del Toro,9.3333,-82.25,78.08,74,36,2.84,PA,1643697969
Khuzhir,53.1939,107.3397,6.48,80,100,3.24,RU,1643697970
Am Timan,11.0297,20.2827,70.65,17,0,10.89,TD,1643697971
Kayerkan,69.3497,87.7602,1.53,77,100,7.14,RU,1643697971
Namatanai,-3.6667,152.4333,81.45,79,100,4.79,PG,1643697973
Yartsevo,55.0667,32.6964,24.58,96,100,6.51,RU,1643697973
Udachny,66.4167,112.4,-30.06,99,68,2.8,RU,1643697974
Watertown,42.3709,-71.1828,21.06,82,0,0.0,US,1643697974
Plettenberg Bay,-34.0527,23.3716,82.2,59,95,3.47,ZA,1643697975
Mandalgovi,45.7625,106.2708,10.44,48,0,9.71,MN,1643697976
Nuuk,64.1835,-51.7216,14.61,92,75,13.8,GL,1643697976
Sibiti,-3.6819,13.3499,72.01,92,99,0.43,CG,1643697977
Umluj,25.0213,37.2685,65.68,42,0,13.91,SA,1643697904
Yar-Sale,66.8333,70.8333,-14.21,99,35,5.91,RU,1643697979
Boa Vista,2.8197,-60.6733,78.78,73,0,10.36,BR,1643697979
Santa Isabel,-23.3156,-46.2214,70.9,96,100,5.3,BR,1643697980
Phalodi,27.1333,72.3667,77.13,20,0,7.81,IN,1643697980
Nichinan,31.6,131.3667,55.08,62,71,14.65,JP,1643697981
Broome,42.2506,-75.833,15.64,77,0,6.91,US,1643697983
Shizuishan,39.2333,106.7694,26.74,14,4,8.21,CN,1643697983
San Jerónimo,-11.9472,-75.2829,45.59,93,100,2.51,PE,1643697983
Huaihua,27.5494,109.9592,38.3,98,100,2.46,CN,1643697984
Quelimane,-17.8786,36.8883,80.55,88,75,5.01,MZ,1643697984
Iquique,-20.2208,-70.1431,66.79,72,0,1.63,CL,1643697985
Córdoba,-31.4135,-64.1811,71.76,87,0,5.75,AR,1643697985
De-Kastri,51.4667,140.7833,8.62,86,100,14.88,RU,1643697987
Saint-Paul,-21.0096,55.2707,86.63,69,41,5.35,RE,1643697987
Mbaïki,3.8678,17.9892,77.56,21,67,3.04,CF,1643697988
Buala,-8.145,159.5921,83.12,74,65,6.33,SB,1643697989
Newcastle,-32.9272,151.7765,86.79,73,0,1.99,AU,1643697990
Dagda,56.0951,27.5372,22.12,92,99,7.81,LV,1643697991
Marsá Maţrūḩ,31.3525,27.2453,56.79,58,100,12.77,EG,1643697991
Wukari,7.85,9.7833,70.02,20,0,8.97,NG,1643697992
Abu Kamal,34.4506,40.9171,49.62,65,1,3.36,SY,1643697993
Caravelas,-17.7125,-39.2481,76.12,91,100,5.91,BR,1643697993
Lagan,45.3929,47.3707,37.71,75,100,4.68,RU,1643697994
Camacha,33.0833,-16.3333,61.56,82,20,24.16,PT,1643697994
Bogorodskoye,56.55,37.8833,22.26,97,100,7.23,RU,1643697995
Caloundra,-26.8,153.1333,89.11,80,53,8.01,AU,1643697995
Plaster Rock,46.9065,-67.39,-10.68,98,20,0.83,CA,1643697996
Inírida,3.8653,-67.9239,72.1,68,100,2.26,CO,1643697996
Hargeisa,9.56,44.065,67.28,45,25,3.83,SO,1643697901
Darhan,49.4867,105.9228,1.4,83,18,2.53,MN,1643697998
Cayenne,4.9333,-52.3333,80.1,85,100,4.0,GF,1643697999
Chilliwack,49.1747,-121.9443,40.91,87,100,1.14,CA,1643698000
Lagos,6.5833,3.75,70.12,49,100,3.65,NG,1643698001
Zeya,53.75,127.2667,6.78,64,85,5.26,RU,1643698001
Kangaatsiaq,68.3065,-53.4641,6.6,88,100,5.61,GL,1643698002
Aurillac,44.9167,2.45,28.65,87,0,4.61,FR,1643698002
Aykhal,66.0,111.5,-23.28,99,90,4.09,RU,1643698003
Roald,62.5833,6.1333,32.32,74,75,19.57,NO,1643698003
Cherskiy,68.75,161.3,-5.89,87,100,6.11,RU,1643698003
Eureka,40.8021,-124.1637,45.93,78,7,7.0,US,1643698004
Longyearbyen,78.2186,15.6401,13.84,67,20,5.75,SJ,1643698004
Salekhard,66.53,66.6019,-21.21,100,92,3.27,RU,1643698005
Yerbogachën,61.2767,108.0108,-7.17,92,87,3.91,RU,1643698006
Los Andes,-32.8337,-70.5983,67.71,66,100,0.36,CL,1643698007
Valleyview,55.0667,-117.2859,-2.16,78,100,2.3,CA,1643698007
Sovetsk,55.0839,21.8785,27.25,80,100,7.67,RU,1643698008
Tigil',57.8,158.6667,7.77,91,46,5.48,RU,1643698008
Mujiayingzi,42.1167,118.7833,20.5,23,0,11.25,CN,1643698009
Hāgere Selam,6.4833,38.5167,61.97,30,100,2.1,ET,1643698009
Cavalcante,-13.7975,-47.4583,66.27,91,75,1.21,BR,1643698010
Ouadda,8.0777,22.4007,73.54,16,10,8.46,CF,1643698010
Bassano,50.7834,-112.4685,5.23,60,100,10.54,CA,1643698010
Rongcheng,30.634,117.8517,43.99,72,100,8.88,CN,1643698012
San Buenaventura,27.0833,-101.5333,60.48,48,6,1.54,MX,1643698012
Caronport,50.4501,-105.8179,3.38,90,100,21.54,CA,1643698013
Nísia Floresta,-6.0911,-35.2086,77.38,83,40,4.27,BR,1643698013
Shenjiamen,29.9576,122.298,41.76,86,100,15.43,CN,1643698013
Port Shepstone,-30.7414,30.455,78.87,78,74,12.84,ZA,1643698014
Pringsewu,-5.3582,104.9744,85.46,73,100,1.66,ID,1643698015
Scarborough,54.2797,-0.4044,50.85,86,100,8.01,GB,1643698015
Port Macquarie,-31.4333,152.9167,82.89,73,48,6.62,AU,1643697762
Batagay-Alyta,67.8006,130.4114,-23.31,99,77,2.71,RU,1643698016
Antsohihy,-14.8796,47.9875,87.37,57,28,6.17,MG,1643698017
Boueni,-12.9025,45.0761,85.98,75,100,8.5,YT,1643698017
Barranca,-10.75,-77.7667,69.49,84,100,5.37,PE,1643698018
Põlva,58.0603,27.0694,24.73,94,99,5.75,EE,1643698018
Oranjemund,-28.55,16.4333,69.04,77,7,10.31,NA,1643698019
Deputatsky,69.3,139.9,-10.62,96,100,0.98,RU,1643698020
Umeå,63.8284,20.2597,13.93,85,100,8.05,SE,1643698020
Boguchany,58.3814,97.4531,9.88,88,100,2.1,RU,1643698021
Kintampo,8.0563,-1.7306,68.86,16,7,3.18,GH,1643697824
Canguaretama,-6.38,-35.1289,77.49,80,25,5.35,BR,1643698022
Snezhnogorsk,69.1933,33.2531,-7.22,100,98,7.25,RU,1643698023
Virú,-8.4167,-78.75,70.63,78,95,1.7,PE,1643698023
Rumonge,-3.9736,29.4386,69.62,88,100,5.23,BI,1643698024
Pitimbu,-7.4706,-34.8086,77.59,75,11,6.96,BR,1643698024
Caluquembe,-13.7833,14.6833,63.61,61,61,3.24,AO,1643698025
Fort-Shevchenko,44.5086,50.263,42.24,87,98,5.99,KZ,1643698025
Kovūr,14.4833,79.9833,84.09,51,66,6.82,IN,1643698026
Octeville,49.6261,-1.6435,49.93,87,100,19.57,FR,1643698026
Soe,-9.8607,124.284,80.01,55,17,10.11,ID,1643698027
Mandera,3.9366,41.867,83.64,52,57,10.85,KE,1643698027
City of San Pedro,14.35,121.0167,87.03,62,75,11.5,PH,1643698028
Gambēla,8.25,34.5833,87.93,22,28,2.8,ET,1643698028
Dongtai,32.8523,120.3095,42.51,39,8,11.95,CN,1643698029
Husavik,66.0449,-17.3389,22.91,81,99,21.21,IS,1643698029
Marabá,-5.3686,-49.1178,73.58,100,20,0.0,BR,1643698030
Marsaxlokk,35.8419,14.5431,54.21,76,75,24.16,MT,1643698030
Ajdabiya,30.7554,20.2263,51.62,63,47,15.93,LY,1643698031
Mitsamiouli,-11.3847,43.2844,86.29,66,20,4.61,KM,1643698032
Kudahuvadhoo,2.6708,72.8944,82.51,76,68,13.73,MV,1643698033
Poya,-21.35,165.15,80.37,78,93,8.52,NC,1643698035
Wasilla,61.5814,-149.4394,17.37,68,0,0.0,US,1643698036
Ciudad Bolivar,8.1222,-63.5497,75.2,78,10,8.52,VE,1643698037
Seewalchen,47.9525,13.5838,35.19,73,100,8.52,AT,1643698037
Bathsheba,13.2167,-59.5167,77.61,83,40,13.8,BB,1643698037
Fortuna,40.5982,-124.1573,45.66,86,0,1.99,US,1643698038
Weligama,5.9667,80.4167,86.4,58,23,5.12,LK,1643698039
Mormugao,15.4,73.8,87.06,35,5,5.75,IN,1643697943
Rodrigues Alves,-7.738,-72.6509,70.14,92,63,2.28,BR,1643698040
Hambantota,6.1241,81.1185,89.94,62,20,8.05,LK,1643698041
Galveston,29.3669,-94.9669,60.84,95,100,9.22,US,1643698041
Mozarlândia,-14.7447,-50.5706,69.69,97,100,3.51,BR,1643698043
Margate,51.3813,1.3862,45.97,88,100,5.99,GB,1643698044
Solnechnyy,50.7214,136.6319,4.48,97,100,3.56,RU,1643698045
Sioux Lookout,50.1001,-91.917,23.38,93,100,10.36,CA,1643698045
Nhulunbuy,-12.2333,136.7667,88.41,70,40,19.57,AU,1643698046
Wote,-1.7808,37.6288,70.34,67,100,1.59,KE,1643698046
Mahon,39.8885,4.2658,50.56,62,75,25.32,ES,1643698046
Leningradskiy,69.3833,178.4167,-15.97,96,48,10.8,RU,1643698047
Fare,-16.7,-151.0167,81.19,75,3,21.21,PF,1643698048
Vila Franca do Campo,37.7167,-25.4333,57.61,76,81,12.84,PT,1643698048
Sueyoshichō-ninokata,31.65,131.0167,53.29,70,45,11.21,JP,1643697925
Kanina,-10.7341,25.4699,64.31,92,93,6.08,CD,1643698050
Juegang,32.3174,121.1855,44.98,51,25,14.76,CN,1643698050
Pochinok,54.4068,32.4407,21.16,95,99,9.28,RU,1643698051
Gamba,-2.65,10.0,78.48,84,49,2.06,GA,1643698051
Pangnirtung,66.1451,-65.7125,-27.65,97,100,4.18,CA,1643698052
Moree,-29.4667,149.85,96.82,26,99,5.75,AU,1643697782
Sergeevka,53.88,67.4158,24.3,93,100,10.47,KZ,1643698054
